~Version Information
VERS.                     2.0 : CWLS Log ASCII Standart
WRAP.                     NO  : One line per depth step
~Well Information
STRT.M                        10.0000  : Start Depth
STOP.M                      1680.0000  : Stop Depth
STEP.M                        10.0000  : Step
NULL.                         -999.25  : Null Value
COMP.      COMPANY                     : Company
WELL.      WELL_1                      : Well
FLD .      FIELD                       : Field
LOC .                                  : Location
PROV.                                  : Province
SRVC.      SERVICE COMPANY             : Service Company
DATE.      LOG:DATE                    : Log Date
UWI .      Unique:Well:Identifier      : Unique Well ID
~Curve Information
DEPT.M                                 :
INCL.DEGREE                            :
AZIM.DEGREE                            :
~P
~O
Just checking... Just checking... Just checking...
Just checking...
Just checking... Just checking... Just checking... Just checking...
~ASCII Log Data
 10.0000     0.750  -999.250
 20.0000     0.870  -999.250
 30.0000     0.920  -999.250
 40.0000     1.070  -999.250
 50.0000     1.350  -999.250
 60.0000     1.600  -999.250
 70.0000     1.760  -999.250
 80.0000     1.700  -999.250
 90.0000     1.870  -999.250
100.0000     1.930  -999.250
110.0000     1.780  -999.250
120.0000     1.940  -999.250
130.0000     2.850   144.310
140.0000     3.510   143.820
150.0000     4.150   140.780
160.0000     4.490   138.710
170.0000     5.110   135.720
180.0000     5.490   133.970
190.0000     6.250   132.510
200.0000     6.600   132.360
210.0000     7.080   131.620
220.0000     7.010   130.030
230.0000     7.130   131.800
240.0000     7.660   131.320
250.0000     7.820   132.520
260.0000     8.230   129.910
270.0000     8.820   128.050
280.0000     9.440   127.360
290.0000     9.930   126.190
300.0000    10.520   125.750
310.0000    11.210   125.730
320.0000    11.850   129.600
330.0000    12.200   131.580
340.0000    12.470   135.230
350.0000    13.340   134.040
360.0000    13.950   134.600
370.0000    14.520   135.420
380.0000    15.010   136.700
390.0000    15.380   140.450
400.0000    15.660   146.020
410.0000    17.230   142.030
420.0000    17.700   141.860
430.0000    18.380   148.690
440.0000    18.530   142.330
450.0000    19.370   146.600
460.0000    20.610   141.440
470.0000    21.150   143.880
480.0000    21.600   139.240
490.0000    23.180   146.240
500.0000    24.630   144.450
510.0000    25.470   148.960
520.0000    25.720   149.670
530.0000    25.740   147.030
540.0000    25.390   151.190
550.0000    25.660   148.100
560.0000    25.450   150.620
570.0000    24.630   148.540
580.0000    24.660   146.590
590.0000    25.190   149.570
600.0000    25.620   149.230
610.0000    25.710   145.760
620.0000    26.290   146.890
630.0000    26.600   148.840
640.0000    26.700   146.990
650.0000    26.290   147.440
660.0000    26.040   146.980
670.0000    25.860   147.890
680.0000    25.850   146.060
690.0000    25.830   146.980
700.0000    26.150   148.570
710.0000    25.880   148.000
720.0000    24.810   150.050
730.0000    24.450   151.060
740.0000    24.720   151.980
750.0000    25.280   150.010
760.0000    24.890   151.970
770.0000    24.120   151.110
780.0000    23.740   153.360
790.0000    23.340   152.240
800.0000    23.630   152.830
810.0000    23.810   153.450
820.0000    23.950   150.460
830.0000    23.770   153.620
840.0000    23.410   152.840
850.0000    23.840   151.800
860.0000    24.090   148.690
870.0000    24.180   147.770
880.0000    23.800   149.780
890.0000    23.290   149.860
900.0000    23.460   147.890
910.0000    24.030   148.510
920.0000    24.270   148.180
930.0000    23.350   147.840
940.0000    22.970   154.300
950.0000    23.100   148.720
960.0000    23.190   148.280
970.0000    23.450   150.540
980.0000    23.820   151.650
990.0000    23.970   147.420
1000.0000    24.600   149.410
1010.0000    25.350   148.590
1020.0000    25.570   150.180
1030.0000    26.100   150.900
1040.0000    26.020   150.680
1050.0000    25.560   145.500
1060.0000    24.520   148.630
1070.0000    24.280   148.670
1080.0000    24.410   149.200
1090.0000    23.680   147.150
1100.0000    23.330   147.360
1110.0000    22.690   148.120
1120.0000    22.780   149.850
1130.0000    22.250   146.500
1140.0000    21.210   147.000
1150.0000    21.050   146.270
1160.0000    21.370   147.260
1170.0000    20.880   148.110
1180.0000    21.200   148.770
1190.0000    21.420   149.470
1200.0000    21.310   148.050
1210.0000    21.240   146.060
1220.0000    20.680   146.420
1230.0000    20.230   144.670
1240.0000    20.130   143.380
1250.0000    20.550   142.160
1260.0000    20.700   142.070
1270.0000    21.130   142.800
1280.0000    20.900   141.660
1290.0000    20.400   140.990
1300.0000    20.390   140.590
1310.0000    19.300   141.130
1320.0000    18.800   141.530
1330.0000    18.750   141.530
1340.0000    18.050   141.630
1350.0000    18.360   141.850
1360.0000    18.420   141.880
1370.0000    18.410   142.340
1380.0000    18.470   139.010
1390.0000    18.690   137.180
1400.0000    18.380   137.640
1410.0000    17.950   139.420
1420.0000    17.240   139.640
1430.0000    16.300   138.900
1440.0000    15.460   138.220
1450.0000    15.720   138.900
1460.0000    15.580   138.390
1470.0000    15.000   139.620
1480.0000    14.960   138.850
1490.0000    15.050   139.500
1500.0000    14.990   138.390
1510.0000    15.010   139.570
1520.0000    14.850   138.570
1530.0000    13.850   139.490
1540.0000    13.150   140.720
1550.0000    12.910   140.780
1560.0000    12.630   140.330
1570.0000    12.240   139.830
1580.0000    11.990   140.380
1590.0000    12.160   140.460
1600.0000    12.210   140.410
1610.0000    12.100   140.850
1620.0000    12.020   140.680
1630.0000    11.790   141.500
1640.0000    11.580   143.720
1650.0000    11.450   145.200
1660.0000    11.470   146.870
1670.0000    11.490   147.100
1680.0000    11.490   147.140
